[
  {
    "country": "GB",
    "name": "London",
    "lat": "51.50853",
    "lng": "-0.12574"
  },
  {
    "country": "JP",
    "name": "Tokyo",
    "lat": "35.6895",
    "lng": "139.69171"
  },
  {
    "country": "US",
    "name": "New York City",
    "lat": "40.71427",
    "lng": "-74.00597"
  },
   {
    "country": "AU",
    "name": "Melbourne",
    "lat": "-37.814",
    "lng": "144.96332"
  },
  {
    "country": "IN",
    "name": "New Delhi",
    "lat": "28.63576",
    "lng": "77.22445"
  },
  {
    "country": "TH",
    "name": "Bangkok",
    "lat": "13.75398",
    "lng": "100.50144"
  },
  {
    "country": "BR",
    "name": "Rio de Janeiro",
    "lat": "-22.90642",
    "lng": "-43.18223"
  },
  {
    "country": "FR",
    "name": "Paris",
    "lat": "48.85341",
    "lng": "2.3488"
  }
]